name,avg_objects_per_frame,avg_pitch,avg_roll,avg_yaw,blink_rate_per_sec,blinks_early,blinks_late,blinks_mid,body_movement_bursts,body_movement_rate,dominant_emotion,duration,emotion_Angry,emotion_Fear,emotion_Happy,emotion_Neutral,emotion_Sad,emotion_Unknown,emotion_switch_rate,emotion_switches,engagement_score,eye_dir_center,eye_dir_down,eye_dir_left,eye_dir_right,eye_dir_up,eye_direction_entropy,filename,final_emotion,head_jerk_rate,head_rotation_per_sec,head_rotation_variance,label,max_blink_streak,person_presence_gaps,person_visible_ratio,suspicious_object_detected,time_to_first_emotion_switch,total_blinks,unique_objects_count
943b062d,2.917681,63.728221,-34.330546,44.150696,0.489816,41,46,44,2,0.308684,Neutral,8.29,1.288005,0.155586,1.524978,3.253384,0.171159,0.937126,0.466125,440,0.80333,0.757908,0.16035,0.141528,0.178719,0.056059,0.344342,62cfa30c.json,Happy,0.437245,295.858309,3943.283442,cheating,24,5,0.823959,1,1.22791,349,9
cd2c3649,1.051064,80.869328,-42.671596,-58.404818,0.706324,15,6,8,3,0.456867,Angry,0.35,1.004882,0.172781,2.220395,1.139824,0.63784,0.579644,0.797218,522,0.59958,0.504102,0.170454,0.047683,0.002851,0.02786,0.742403,cada179b.json,Sad,0.641753,191.668567,19644.273111,cheating,7,3,0.965361,0,7.340486,284,8
affd1478,2.256235,65.553626,-36.793663,143.862961,0.685101,15,11,34,2,0.405192,Angry,8.95,0.008903,0.382808,1.878413,0.927476,0.421393,0.106347,0.785243,399,0.152376,0.346233,0.058867,0.161021,0.038654,0.093754,0.747642,0ceb7d0f.json,Sad,0.984563,291.394954,680.10126,cheating,27,2,0.807971,0,7.839031,574,8
dfb099d4,1.016098,85.205311,-42.892581,-32.471547,0.91165,4,17,6,7,0.423113,Happy,1.31,0.910891,0.387872,0.765917,2.854754,0.982847,0.818115,0.698795,82,0.049664,0.57081,0.15186,0.060005,0.123189,0.163069,0.330431,7c426af9.json,Neutral,0.448049,116.61098,8707.702434,cheating,31,8,0.92465,1,1.543278,222,19
f33dcaa5,0.983502,95.130942,-31.063611,-53.381741,1.029783,40,30,31,18,0.257918,Sad,3.22,0.777392,0.643346,2.471748,2.162566,0.649147,0.2878,0.642609,385,0.99488,0.562098,0.11525,0.181789,0.109522,0.196291,0.514137,3981854a.json,Neutral,0.468412,182.877045,17371.916203,cheating,12,2,0.941414,0,2.377298,126,10
1651691f,1.020997,87.639009,-36.557627,7.217772,2.108737,11,50,0,16,0.481313,Sad,9.47,2.657418,0.730925,1.925397,0.683373,0.276346,0.856033,0.667616,463,0.532341,0.518849,0.150019,0.09833,0.009771,0.195363,0.508578,24af2dad.json,Sad,0.865809,297.164539,8594.336831,cheating,5,0,0.861834,1,3.895272,458,8
d51e7123,1.561209,94.698004,-34.121261,-82.989187,2.408636,44,50,25,29,0.570617,Neutral,4.93,2.922894,0.349276,2.38175,0.775541,0.490612,0.94828,0.689766,10,0.894345,0.545601,0.159508,0.092636,0.167346,0.153797,0.408521,0a8e8f30.json,Sad,0.857181,154.997473,4326.202514,cheating,4,5,0.955204,1,7.921193,465,8
2016b582,2.523093,81.272591,-40.185817,12.593788,2.193598,8,22,0,3,0.284683,Angry,6.6,2.93094,0.970431,2.772003,1.768894,0.213914,0.793184,0.871037,183,0.956924,0.678404,0.060744,0.157825,0.098655,0.184583,0.617698,cd5f693f.json,Happy,0.324087,195.06325,6649.340949,cheating,35,4,0.819874,0,9.294397,409,11
45a48da9,1.037017,98.757446,-30.89338,14.348386,0.614566,17,37,45,21,0.196448,Angry,9.02,1.38894,0.303741,1.082768,1.656996,0.030674,0.202035,0.142149,428,0.8608,0.480029,0.066706,0.15523,0.000338,0.010971,0.697181,6ddf567e.json,Sad,0.760407,48.134474,9436.366882,cheating,17,2,0.810383,1,2.789659,369,15
1da2fcd7,1.9631,88.829737,-44.01235,76.611199,1.978395,22,6,47,10,0.413989,Sad,6.01,0.376086,0.677335,0.802288,2.72046,0.290203,0.548836,0.042629,141,0.311061,0.368836,0.037064,0.141573,0.185049,0.035173,0.591183,4445b2b0.json,Happy,0.86626,160.927105,3903.885456,cheating,34,0,0.910115,1,8.614157,82,12
f706500e,1.804724,94.371678,-43.721742,60.044748,0.881603,37,39,22,1,0.029491,Happy,4.11,2.391499,0.436203,2.11083,3.898559,0.569921,0.36268,0.596992,8,0.656452,0.294331,0.013641,0.047404,0.022714,0.154349,0.478581,f8a490e2.json,Neutral,0.316963,154.531527,7654.070659,cheating,21,7,0.983354,1,7.940267,466,9
ea3bf67c,1.651291,70.936996,-35.6724,73.555664,0.404889,50,15,42,11,0.249775,Sad,1.94,2.164279,0.734699,2.345882,3.561822,0.114945,0.190077,0.454678,223,0.408625,0.290398,0.192304,0.104155,0.102248,0.030248,0.487554,2a466798.json,Neutral,0.677909,168.610916,6048.965533,cheating,11,5,0.983846,1,3.723442,81,10
13d21215,2.286958,81.369324,-38.38132,127.578037,1.65754,1,45,42,14,0.352144,Neutral,7.85,0.810518,0.052608,2.799423,2.079039,0.963693,0.80632,0.21294,54,0.14206,0.707255,0.126703,0.013238,0.105163,0.059288,0.349105,97b9f895.json,Happy,0.551783,38.92421,16055.822082,cheating,15,8,0.88915,1,5.80906,207,13
74b9f5a4,2.770711,95.282678,-44.902095,44.406004,0.315128,16,33,5,13,0.031841,Sad,5.23,0.3385,0.385147,0.544796,3.997377,0.570412,0.939867,0.605798,421,0.749506,0.71436,0.157998,0.125512,0.179177,0.002194,0.52578,04a58535.json,Happy,0.674053,174.186062,13632.286666,cheating,4,5,0.870638,0,9.204141,520,17
c5891713,1.732307,98.908764,-34.464316,36.121903,1.868275,29,26,47,24,0.579244,Happy,9.93,2.961445,0.291582,2.809223,2.118614,0.62161,0.990252,0.774379,86,0.300701,0.612805,0.174598,0.148616,0.089586,0.040263,0.461233,296d238a.json,Sad,0.382543,267.188191,7666.511862,cheating,8,1,0.933709,0,2.540268,426,2
c9aa1610,2.884491,96.559406,-32.191455,40.289356,1.040912,20,7,35,13,0.158142,Angry,7.33,0.311998,0.277617,0.758398,3.316557,0.90942,0.893252,0.244895,57,0.094106,0.294941,0.193054,0.149795,0.066785,0.086722,0.703492,2c4f1336.json,Neutral,0.592702,27.808454,2871.785527,cheating,10,7,0.977834,1,3.941528,580,10
6c674870,1.330859,99.568268,-35.027305,-39.662429,2.398374,23,2,15,12,0.214942,Happy,6.48,2.902863,0.534561,0.657333,2.519599,0.637527,0.163143,0.280376,154,0.292802,0.390001,0.187761,0.101652,0.044941,0.119696,0.388567,1f704ea8.json,Happy,0.887965,59.097475,3026.736314,cheating,33,1,0.898252,1,2.027585,572,4
edd278d3,1.377798,90.587323,-32.120577,9.70651,0.857931,48,24,2,0,0.421558,Sad,5.21,1.239645,0.408139,2.857198,2.236655,0.24251,0.90614,0.798354,444,0.316669,0.395726,0.019927,0.054907,0.010816,0.130116,0.518872,c1e3ca9c.json,Neutral,0.384547,233.968449,6818.184332,cheating,8,5,0.824239,1,5.822444,390,6
ade14ab8,1.92554,68.331408,-33.415365,137.107632,2.398426,10,15,24,23,0.043948,Neutral,0.97,1.985007,0.20166,2.100366,2.014635,0.230127,0.999633,0.768112,155,0.478135,0.706927,0.198028,0.05957,0.097191,0.12564,0.57431,21c8ecfb.json,Neutral,0.587608,82.750458,4414.790881,cheating,33,1,0.845828,1,3.742485,129,13
b9ca7f58,2.949873,60.66024,-35.441992,97.113064,0.7537,4,7,39,25,0.529513,Happy,4.95,0.997608,0.939291,2.283042,1.502992,0.24642,0.385623,0.642656,409,0.508381,0.384676,0.116912,0.120653,0.066463,0.100291,0.396518,24813b9b.json,Happy,0.89171,276.296773,7880.145678,cheating,31,5,0.86632,1,4.808623,462,5
08b51d61,1.51457,68.366345,-38.435664,-1.404024,0.505907,4,35,25,11,0.363707,Sad,3.94,2.384406,0.85874,2.296472,3.849391,0.038184,0.718832,0.132936,308,0.166684,0.429298,0.016167,0.196795,0.195529,0.15974,0.689337,63a9517f.json,Happy,0.540468,37.011677,13045.726659,cheating,6,7,0.85848,1,5.625766,285,3
77023653,2.970428,64.181839,-30.047737,-68.116635,0.506588,46,30,35,10,0.472001,Sad,4.91,0.613786,0.14372,0.703397,1.791865,0.128809,0.164536,0.251166,428,0.984081,0.375489,0.187845,8.5e-05,0.104473,0.021776,0.577563,58f78eca.json,Neutral,0.423485,71.150673,16569.792005,cheating,7,5,0.898509,1,7.501216,374,12
fc91c327,0.858592,75.262097,-30.269933,29.673424,2.324082,29,32,19,11,0.199955,Sad,0.44,2.749227,0.845554,2.518179,1.955275,0.714057,0.280795,0.548069,431,0.031144,0.570657,0.038183,0.190353,0.076687,0.045068,0.681846,4a522527.json,Happy,0.124786,74.221763,16459.89816,cheating,14,1,0.911469,1,5.937544,244,5
e4e029d0,1.59201,94.320974,-30.719936,-94.146723,0.868178,7,29,3,27,0.272448,Angry,0.82,2.162583,0.53501,2.76099,0.698433,0.857695,0.245325,0.185831,81,0.828949,0.465412,0.126433,0.094721,0.150183,0.185985,0.618918,3a33478a.json,Sad,0.231105,215.909678,8566.469189,cheating,20,2,0.91209,1,8.469619,294,18
6c1e930f,2.778624,84.74345,-44.594401,-117.576763,2.484323,36,36,23,22,0.348898,Angry,9.99,2.793838,0.669984,2.588201,3.131695,0.376465,0.322278,0.455618,310,0.498933,0.799846,0.127998,0.121693,0.108462,0.092771,0.51864,ba473fcd.json,Happy,0.610492,187.781647,9542.499101,cheating,15,7,0.88381,1,4.575689,103,15
bf012dcd,1.685397,84.043948,-38.069836,82.327042,2.462679,7,30,26,30,0.486037,Angry,2.18,2.493,0.112107,1.665987,3.312364,0.7703,0.357405,0.271034,48,0.760354,0.487747,0.116262,0.105436,0.045064,0.03593,0.454525,8460f28c.json,Happy,0.908947,152.990325,13313.583495,cheating,22,2,0.85099,1,4.779576,532,3
0b180831,2.766552,66.305555,-40.790601,52.092927,1.112399,0,28,49,21,0.456827,Sad,8.6,2.279375,0.427899,2.219587,2.27725,0.727048,0.821941,0.510126,530,0.142976,0.588872,0.115979,0.005907,0.11778,0.08029,0.52148,9740ae9f.json,Sad,0.435186,52.800761,19012.986889,cheating,22,3,0.874777,1,6.224964,151,19
3c8ffba4,1.967628,85.777117,-30.99773,-86.444189,1.687195,9,39,35,24,0.190095,Neutral,9.51,1.287208,0.809954,2.659886,1.456922,0.944267,0.218375,0.745859,138,0.132635,0.596973,0.158232,0.004543,0.086841,0.138313,0.548775,2376ed32.json,Happy,0.397461,106.982364,3588.01982,cheating,32,1,0.998041,0,7.089448,419,20
b19e5d0c,2.878808,89.506619,-37.140024,34.838581,1.614297,11,11,17,15,0.09204,Angry,8.58,1.326621,0.064593,2.048031,1.042407,0.246776,0.528902,0.662784,197,0.912532,0.510629,0.080714,0.049207,0.162964,0.024827,0.382117,66807231.json,Neutral,0.428651,24.328789,12904.111117,cheating,19,2,0.914716,0,1.949534,19,5
a9af909f,0.95815,72.200375,-42.119633,8.595605,2.098145,4,32,35,14,0.324191,Sad,7.45,2.176645,0.272403,1.119234,0.88337,0.70242,0.195715,0.283914,204,0.631598,0.192159,0.12955,0.152557,0.066647,0.163624,0.481486,29fb77dc.json,Happy,0.966308,112.332672,5947.33338,cheating,3,4,0.959342,1,5.47187,269,11
9ba6b43a,2.947223,60.833666,-39.539313,71.27287,2.188214,26,16,42,6,0.055121,Happy,1.66,1.614496,0.833017,2.414922,0.965313,0.528496,0.642516,0.522848,173,0.996495,0.352312,0.161931,0.118486,0.022087,0.020991,0.374964,c59acbba.json,Sad,0.927915,248.125372,19379.961659,cheating,32,0,0.990963,0,5.307309,582,13
e2e8dacd,1.090482,64.172,-39.103065,10.360551,2.492899,30,49,22,21,0.315558,Happy,5.77,1.262334,0.918277,0.794272,1.139445,0.525091,0.5401,0.508787,509,0.794734,0.113323,0.18797,0.159081,0.115312,0.149826,0.633205,fadba58a.json,Happy,0.618746,287.032442,6645.371215,cheating,9,6,0.885886,1,5.733866,349,19
3eab96e0,0.67951,65.072161,-34.04102,-62.658538,0.451801,31,32,43,7,0.534698,Neutral,7.24,0.898117,0.854563,0.65816,3.235993,0.172837,0.224891,0.359623,439,0.946815,0.556502,0.144763,0.145787,0.008894,0.198631,0.523627,e3c189f3.json,Sad,0.749026,219.94443,19860.220154,cheating,5,1,0.810071,0,6.344155,82,13
b78c2c47,1.710359,92.981473,-43.557467,-13.001348,2.286842,43,22,44,3,0.460978,Neutral,7.45,2.453114,0.195975,2.993548,0.583231,0.310304,0.039641,0.647045,14,0.276368,0.484451,0.16872,0.040166,0.144793,0.04827,0.5871,fcadceb1.json,Happy,0.265666,277.044462,19171.708366,cheating,13,4,0.879865,1,9.522444,138,3
5ccda6ae,1.203731,65.880256,-36.971401,75.376861,0.975706,34,23,4,18,0.188718,Neutral,2.3,0.90594,0.953348,1.990459,3.28252,0.201147,0.310521,0.288093,254,0.431249,0.606873,0.082756,0.115356,0.164351,0.121076,0.638913,08fe5f9f.json,Happy,0.224096,242.973873,11404.270362,cheating,29,3,0.8858,1,7.368495,504,5
355fb15b,1.550791,96.047103,-39.611202,-54.307013,2.331824,39,29,10,18,0.51335,Happy,4.77,2.000286,0.252771,0.532954,1.847193,0.393345,0.449133,0.608491,302,0.237247,0.728502,0.072724,0.156712,0.106599,0.147968,0.380744,812fdf97.json,Happy,0.128368,145.362431,16359.575823,cheating,35,6,0.810771,1,7.523071,438,2
f35b2810,2.128995,84.790114,-32.263844,51.923529,2.317727,37,36,48,3,0.136584,Happy,5.53,1.00781,0.550409,2.764891,1.991176,0.74075,0.79562,0.27667,323,0.956905,0.581405,0.034836,0.01427,0.147619,0.188439,0.588925,cabd8791.json,Happy,0.748524,199.957864,16217.138993,cheating,3,0,0.873378,0,2.826674,362,17
2f0a34d1,1.318477,62.69537,-42.346724,46.752283,1.591777,40,40,39,23,0.412905,Sad,7.0,2.347219,0.084112,2.776284,2.0259,0.318892,0.767567,0.080725,298,0.056807,0.146365,0.178778,0.014667,0.02209,0.192132,0.556963,a82ee8a9.json,Sad,0.840539,146.210927,3622.220381,cheating,3,0,0.949139,1,9.866466,39,17
fdc2d42b,1.328713,80.294235,-42.005251,93.177826,1.473831,44,22,4,11,0.578414,Angry,7.24,0.40709,0.587085,2.173038,0.941374,0.855605,0.616403,0.459841,213,0.688262,0.57733,0.139401,0.02576,0.146421,0.109466,0.576199,2bbf4d9a.json,Neutral,0.528231,207.334726,19179.747769,cheating,29,6,0.982323,1,7.416857,466,17
042dfc14,2.026522,97.455163,-43.940893,156.532443,1.160541,34,25,41,20,0.410626,Happy,4.47,0.52672,0.020411,0.999044,3.453547,0.876475,0.036785,0.508801,444,0.726911,0.292899,0.154713,0.00483,0.197609,0.136091,0.760831,98162058.json,Sad,0.152974,289.954546,1010.372318,cheating,13,0,0.979259,1,5.828822,219,6
ae62419a,2.9576,77.790681,-41.709517,139.747815,1.485618,39,1,1,5,0.054952,Neutral,4.32,1.401051,0.391439,1.144484,3.151841,0.944427,0.282869,0.528999,480,0.226646,0.322348,0.116013,0.115462,0.008196,0.027729,0.421992,4467f7f3.json,Sad,0.113395,281.313703,346.399642,cheating,19,5,0.940837,0,9.925946,450,17
d4d8b3fe,1.776734,76.352384,-36.127028,-115.18515,1.881402,9,8,26,0,0.124663,Angry,9.44,2.425991,0.126602,2.488041,1.246453,0.192959,0.757018,0.669501,272,0.612318,0.139622,0.162255,0.101915,0.057965,0.03139,0.448544,8ded651a.json,Neutral,0.550179,68.679584,14951.928376,cheating,10,4,0.95587,0,4.129554,61,20
be6ec790,2.417767,88.419249,-40.17509,5.016122,1.964244,21,44,0,9,0.047112,Angry,2.41,0.829951,0.145756,1.405631,0.767829,0.410772,0.239311,0.283202,76,0.365047,0.498649,0.024068,0.01692,0.177538,0.158511,0.478622,39d13af4.json,Sad,0.311755,124.353249,19206.417757,cheating,17,5,0.960094,1,6.40667,223,6
fec1c126,1.717065,87.74699,-37.808148,134.798498,1.626644,34,30,28,18,0.465343,Neutral,4.38,1.383453,0.433135,1.344577,0.683504,0.178565,0.373198,0.340725,188,0.315867,0.772331,0.048705,0.156504,0.146162,0.074035,0.642752,e4cf310a.json,Neutral,0.164823,108.759741,15524.178548,cheating,9,7,0.919218,0,6.363152,151,11
fb01f5b2,2.77229,61.945236,-31.897961,-19.003397,0.623227,0,37,25,5,0.432756,Happy,8.54,0.039674,0.232282,1.007736,2.900469,0.920421,0.249444,0.439812,579,0.551333,0.40784,0.021744,0.003332,0.073535,0.115461,0.605375,fb205825.json,Happy,0.219985,155.425772,9244.134434,cheating,34,1,0.994508,1,7.989518,365,4
f13c7f2f,0.68659,68.842252,-44.507634,7.844539,2.131165,41,6,33,4,0.330263,Angry,3.44,2.534047,0.26974,2.035509,2.061489,0.836893,0.120329,0.891903,40,0.975233,0.582491,0.180572,0.16875,0.132729,0.03619,0.733287,589bf66f.json,Sad,0.987239,91.793882,3342.727201,cheating,30,5,0.914426,1,9.800324,55,4
057b77e2,2.889216,92.149584,-38.098109,-16.043564,2.373416,16,3,40,12,0.282774,Neutral,4.27,1.443271,0.231007,1.549435,0.65939,0.433807,0.306045,0.180398,473,0.789152,0.451595,0.017876,0.157181,0.153102,0.064436,0.694943,17244d21.json,Sad,0.231945,44.902944,13610.561384,cheating,9,2,0.879231,1,4.741171,432,13
950511b3,0.709398,61.455022,-38.112256,-22.274528,1.537824,39,27,6,1,0.052907,Neutral,9.84,2.179753,0.34317,1.980073,3.971494,0.704792,0.775346,0.927349,49,0.719788,0.744933,0.012373,0.186301,0.167056,0.150194,0.528463,ac9aa3de.json,Neutral,0.11466,239.619038,16455.238827,cheating,5,1,0.86352,0,6.28337,45,17
68c171aa,1.688467,95.269076,-30.727659,144.587247,1.650113,27,13,48,24,0.188208,Neutral,5.72,0.498122,0.522545,2.999586,3.8561,0.706221,0.874689,0.587307,210,0.813853,0.509248,0.073103,0.106039,0.136243,0.066915,0.622207,902129a8.json,Sad,0.581701,187.541721,14527.340795,cheating,20,4,0.829059,0,3.712592,266,13
72b5f311,2.855299,85.514799,-30.139585,105.001679,1.160478,28,38,37,17,0.14503,Neutral,1.1,0.290411,0.344662,0.572915,3.563082,0.22389,0.611492,0.54731,343,0.862082,0.221771,0.129654,0.162675,0.105282,0.178191,0.516199,46d62de8.json,Sad,0.799896,226.10079,16321.584995,cheating,24,8,0.920327,0,4.118481,190,16
d73ef229,1.483141,69.722494,-39.546414,71.739848,1.417255,8,6,28,11,0.045717,Neutral,8.04,0.43401,0.250485,2.122106,3.068089,0.994569,0.695219,0.982259,366,0.336892,0.500869,0.09953,0.09548,0.162502,0.165387,0.307194,012fdb39.json,Happy,0.615453,129.733176,5079.606124,cheating,21,3,0.94953,0,8.722765,168,6
70d170f3,1.974912,66.986458,-41.655091,123.056392,0.582359,49,22,9,8,0.387699,Angry,3.97,1.615174,0.893129,0.673034,1.293648,0.536037,0.161551,0.195259,45,0.210431,0.127385,0.166315,0.047037,0.190443,0.037841,0.34368,5ef07cb9.json,Neutral,0.615066,294.808712,307.257544,cheating,20,4,0.829205,0,9.994816,417,14
a15435d8,0.960299,87.229395,-41.059945,-87.569936,2.326486,43,30,12,14,0.282165,Angry,5.27,0.249799,0.017091,2.998035,2.348324,0.399101,0.629453,0.530202,189,0.630188,0.418527,0.03087,0.021671,0.092364,0.138195,0.540692,1ae27f81.json,Neutral,0.801871,266.736787,16834.212462,cheating,4,7,0.91292,0,1.535128,417,2
9f9c42f0,0.923278,80.133378,-39.567362,75.836152,2.214597,46,0,2,3,0.373676,Neutral,3.23,0.138348,0.885317,1.840945,3.939059,0.943095,0.725835,0.076104,488,0.393033,0.658191,0.188953,0.007575,0.10298,0.177499,0.399602,8c89fef5.json,Neutral,0.266205,115.45647,6123.087887,cheating,24,3,0.874722,1,6.524136,85,13
5b3b29d0,1.504002,83.477984,-37.951012,92.809253,1.07921,11,32,14,4,0.380218,Neutral,6.33,1.046483,0.824118,0.956598,0.89708,0.918434,0.72494,0.735373,42,0.710193,0.260487,0.103759,0.073058,0.006615,0.046401,0.474722,7846e9ad.json,Neutral,0.97268,140.710858,19925.529058,cheating,35,5,0.825527,0,6.829205,25,14
42ae5491,0.518107,87.659089,-33.089541,138.746287,2.240683,35,43,36,23,0.155473,Happy,2.3,1.925087,0.4225,2.84731,2.095049,0.428228,0.829897,0.625511,592,0.395701,0.750531,0.119497,0.159243,0.163022,0.159545,0.786336,afce1835.json,Sad,0.623262,178.632904,15921.54018,cheating,12,5,0.866558,1,7.081684,276,3
17614532,1.369993,84.992623,-43.04002,150.64955,2.215806,34,10,44,20,0.488952,Angry,5.01,0.694394,0.410547,1.159215,2.347379,0.147499,0.089125,0.327818,242,0.600226,0.491575,0.180421,0.049562,0.038438,0.058887,0.602936,ebfc6b6c.json,Sad,0.324374,254.056078,1421.490756,cheating,20,2,0.874311,1,5.341221,376,17
70dd51e0,0.62254,95.416846,-42.812636,105.400361,1.746747,2,42,28,10,0.021559,Neutral,1.01,2.966191,0.208983,0.513854,1.379288,0.175857,0.45298,0.261658,462,0.682715,0.111505,0.16778,0.077555,0.1083,0.16868,0.410171,0847f9ce.json,Neutral,0.470073,213.431346,18023.63143,cheating,7,4,0.922201,1,3.330948,353,10
aefd28b6,1.251561,95.358651,-32.729976,67.144929,0.601911,32,35,25,18,0.388018,Angry,4.13,0.549792,0.29649,2.704233,3.887427,0.306627,0.093946,0.102174,126,0.37043,0.431865,0.130637,0.131127,0.092512,0.179855,0.533331,ff5cd167.json,Neutral,0.658083,120.506924,5500.859325,cheating,34,8,0.899357,1,4.947697,574,5
2120a03c,1.889611,93.65123,-32.55405,-15.214867,0.791832,21,4,47,10,0.182833,Sad,0.29,0.599875,0.538294,2.059478,1.890884,0.40409,0.142007,0.371254,487,0.116085,0.154685,0.131167,0.05527,0.03926,0.088236,0.506912,4f12dcd9.json,Sad,0.447935,296.713553,18416.923575,cheating,23,3,0.840316,1,2.740916,83,10
59f3da22,2.942609,97.479856,-32.639928,55.745743,0.883155,44,38,37,18,0.556404,Happy,3.89,0.787635,0.000995,2.159011,3.179229,0.625081,0.413503,0.983388,234,0.791728,0.774735,0.1224,0.016162,0.177982,8e-05,0.588088,b9f579ce.json,Neutral,0.399817,263.926215,12423.850745,cheating,13,6,0.92399,1,1.83659,554,9
4604ad1b,1.094803,70.031475,-37.968235,75.061138,1.385012,26,11,5,26,0.453886,Neutral,6.39,2.0694,0.383976,2.857898,3.925919,0.315197,0.720164,0.821513,479,0.190588,0.621526,0.13693,0.039483,0.034712,0.062802,0.409486,d6226b98.json,Neutral,0.25559,71.40911,14821.186394,cheating,14,1,0.818073,0,7.206104,377,11
72033514,1.146935,85.461166,-36.524742,-58.70996,1.83488,32,18,13,10,0.374772,Neutral,7.3,0.608999,0.481311,1.838945,1.360596,0.263631,0.620992,0.863533,323,0.713923,0.457736,0.062186,0.090369,0.186279,0.13819,0.599091,97c30208.json,Happy,0.721164,90.422485,11664.184495,cheating,25,8,0.910276,0,1.916246,93,20
dd766cbb,1.455028,66.606995,-36.430188,100.330698,1.109032,9,41,1,2,0.269561,Happy,1.9,1.077482,0.130219,2.304886,1.910295,0.574462,0.541218,0.967628,343,0.644651,0.348023,0.105265,0.095538,0.079065,0.075423,0.654985,2724f6fc.json,Happy,0.55529,174.699365,6096.423655,cheating,35,3,0.924493,0,9.08104,516,4
2b358645,1.409532,62.642172,-42.31479,-0.846059,0.34914,39,44,21,7,0.111347,Angry,3.94,1.697311,0.594241,0.872733,1.515637,0.459982,0.960611,0.464037,279,0.790062,0.351419,0.058243,0.162677,0.1474,0.173439,0.729347,6e2cbeac.json,Neutral,0.394901,226.205707,4388.282823,cheating,30,0,0.815016,0,2.375424,212,20
b47590f6,1.304862,65.023434,-44.65449,152.429569,0.523735,1,47,20,19,0.553877,Happy,4.62,0.477038,0.069486,2.198932,0.617999,0.958869,0.835478,0.786558,188,0.385464,0.212936,0.178459,0.15364,0.178771,0.162213,0.626755,2577f247.json,Neutral,0.673245,201.938256,12256.044509,cheating,7,4,0.9145,0,3.895821,227,12
a85d442f,1.837137,87.266859,-33.991544,-51.362903,2.095888,8,27,42,0,0.56583,Happy,7.33,2.39178,0.23927,2.105408,3.670137,0.634557,0.530937,0.131599,178,0.708329,0.553793,0.021904,0.093271,0.056423,0.097129,0.354768,bcd2ef5a.json,Happy,0.7748,100.690839,4656.742818,cheating,8,1,0.96416,1,7.711829,63,6
ec98ba12,2.535407,74.777973,-31.341494,-39.920899,2.040966,29,3,18,6,0.224595,Neutral,4.1,2.709721,0.235267,2.192396,2.788494,0.732817,0.863033,0.256347,296,0.091081,0.460361,0.110178,0.185016,0.178558,0.00927,0.464503,afa7e76a.json,Happy,0.950912,158.819449,14766.395378,cheating,9,0,0.867223,0,3.749073,429,16
bbeb7f3b,0.82421,77.928116,-41.213351,-2.03907,0.516749,45,41,8,5,0.27845,Neutral,6.04,0.906779,0.124293,2.569934,3.925713,0.938268,0.594687,0.665432,382,0.268581,0.758708,0.128976,0.035549,0.137101,0.146554,0.537347,004788a3.json,Happy,0.619169,162.394781,8716.272976,cheating,33,7,0.812821,1,8.167655,48,13
7863a256,2.210141,67.834434,-44.645529,57.57777,1.612528,38,29,36,18,0.083785,Neutral,1.36,0.688796,0.975424,0.502536,2.645432,0.492758,0.362297,0.203979,465,0.365265,0.568858,0.067059,0.194446,0.16433,0.147955,0.376001,b638615e.json,Sad,0.665066,106.225104,14885.742178,cheating,35,3,0.981424,1,8.445854,507,20
ebbfb58c,0.935895,82.675542,-43.037866,-102.900007,1.570902,25,34,42,29,0.441604,Angry,2.36,2.716621,0.282797,0.853942,1.672273,0.730034,0.430236,0.395486,523,0.315428,0.786379,0.13029,0.003246,0.049966,0.156393,0.39219,20c86e51.json,Neutral,0.217786,23.167059,18746.279741,cheating,11,7,0.974115,0,2.67841,98,2
34d1210b,0.857197,83.448252,-36.561548,5.245637,2.050276,6,16,42,2,0.022827,Angry,0.9,0.617053,0.344339,1.040344,3.568599,0.116357,0.624024,0.193524,29,0.62129,0.590888,0.139511,0.004944,0.104468,0.156751,0.410911,204b22c2.json,Neutral,0.529705,32.161026,17231.540703,cheating,30,5,0.803973,0,4.714922,360,20
e5a44443,2.382989,74.93728,-30.247549,80.469787,1.049183,28,45,13,22,0.302755,Neutral,7.23,2.134311,0.734478,0.741657,2.64748,0.704557,0.527445,0.841488,272,0.493002,0.711084,0.004415,0.08487,0.041502,0.16702,0.661466,0dde11d8.json,Happy,0.698856,230.273407,4091.798354,cheating,20,0,0.854113,1,8.800224,166,7
4a0e6c86,1.057382,60.08519,-42.047892,1.661543,0.812882,10,40,18,20,0.226534,Angry,3.28,0.888218,0.845038,2.858674,2.741296,0.46315,0.429303,0.829664,75,0.662121,0.399997,0.112195,0.032035,0.012175,0.058025,0.43411,4eefb860.json,Sad,0.530277,30.187477,5789.20667,cheating,25,1,0.913593,1,2.792678,503,7
ddb2d072,1.93414,73.840038,-44.90718,25.145405,0.487636,43,30,42,14,0.519588,Sad,5.51,0.94975,0.011819,2.679029,1.954973,0.844534,0.059004,0.128039,526,0.622961,0.559705,0.134492,0.000414,0.051915,0.044539,0.31762,362f3ef4.json,Sad,0.541169,293.651089,11290.015724,cheating,34,0,0.836476,1,5.967196,593,18
bdfb7e7b,2.626917,67.139747,-43.78168,116.640784,0.987799,10,28,3,6,0.084492,Happy,9.76,0.748031,0.311733,0.632577,1.340245,0.295945,0.652667,0.102977,366,0.658658,0.407225,0.064339,0.108145,0.00578,0.120657,0.628828,f06330b2.json,Happy,0.177731,86.549172,15809.878933,cheating,27,8,0.932229,1,1.050711,432,6
78d6272e,2.238715,97.543696,-35.82713,50.377542,1.489559,46,26,24,14,0.538236,Sad,7.24,2.824125,0.945706,2.181366,3.238537,0.819644,0.497977,0.67848,18,0.749723,0.26572,0.007392,0.011565,0.118125,0.127949,0.352046,7be93661.json,Happy,0.190622,274.158998,18118.960906,cheating,25,1,0.94692,1,2.929891,516,8
80a7751e,2.208209,63.307372,-35.382905,142.307794,2.056744,15,43,30,9,0.383962,Neutral,7.81,2.388029,0.683477,2.451287,3.977468,0.740808,0.004472,0.463993,225,0.459207,0.692551,0.080003,0.138221,0.05936,0.025453,0.640412,b21ed4ab.json,Sad,0.928304,80.944607,11797.822202,cheating,18,8,0.842295,1,5.700981,146,9
47f720a3,1.0183,99.241471,-38.214955,99.034981,1.917557,18,10,12,12,0.234289,Happy,4.16,2.398074,0.087318,0.543905,2.452987,0.921329,0.769092,0.358527,247,0.956561,0.456319,0.118019,0.154727,0.074355,0.083531,0.42802,7f3820b1.json,Sad,0.748954,206.579876,1218.128591,cheating,35,5,0.835119,0,1.326059,459,18
337d2464,0.731229,94.765798,-42.510617,2.538849,0.458415,20,35,6,20,0.257165,Angry,4.93,1.937241,0.848492,2.137712,2.564396,0.385294,0.63677,0.672467,75,0.639458,0.770331,0.147831,0.12894,0.171345,0.063307,0.719675,fb151ec1.json,Sad,0.959607,78.971566,2143.18165,cheating,10,6,0.875106,1,9.280713,299,14
7e98d814,2.325605,60.157813,-39.3212,31.358075,2.067153,9,33,23,20,0.442935,Sad,5.15,2.503676,0.704769,1.661793,1.063782,0.180233,0.536674,0.54753,481,0.865586,0.256205,0.048806,0.169911,0.112846,0.131291,0.623382,e11d9645.json,Sad,0.606929,159.152519,17635.366115,cheating,35,7,0.844972,0,9.492104,86,12
20a38233,1.083552,87.56798,-36.69549,-85.133203,0.858495,49,1,8,12,0.320918,Neutral,9.04,0.396562,0.49745,2.305026,1.95362,0.524524,0.195823,0.407352,577,0.909965,0.495672,0.004297,0.168075,0.095967,0.031577,0.785381,858b60c3.json,Happy,0.875252,285.234125,3213.000545,cheating,21,8,0.884262,0,3.213181,86,17
b87dd700,1.573713,85.27879,-32.027123,154.027924,1.447282,47,25,34,29,0.178704,Neutral,9.21,2.077889,0.895864,0.750566,2.407588,0.511867,0.446255,0.044211,376,0.154431,0.319606,0.048883,0.136925,0.108355,0.162636,0.744622,8e628f2d.json,Happy,0.61886,156.585434,9160.297726,cheating,17,8,0.853873,1,5.297857,67,10
6ee40123,2.644447,76.286226,-31.34461,56.56333,2.461295,48,31,32,5,0.211503,Angry,4.73,2.300339,0.362685,1.918608,3.022918,0.889822,0.137108,0.0028,197,0.517585,0.334397,0.139891,0.070165,0.086311,0.152661,0.321044,46938770.json,Neutral,0.901389,40.350664,5319.647147,cheating,35,2,0.978641,0,6.167994,414,5
22e2e183,1.447925,78.810206,-44.590749,127.489706,2.203187,9,38,30,28,0.044169,Neutral,6.09,0.508151,0.55512,2.536996,1.045884,0.671549,0.673091,0.78359,264,0.413347,0.291454,0.006363,0.031336,0.112941,0.106715,0.551317,84483a58.json,Happy,0.977173,164.601465,7533.743279,cheating,14,3,0.805041,1,8.245472,173,3
3d05ed05,2.234526,62.284067,-35.716188,39.603252,0.645133,19,9,8,19,0.405379,Angry,7.71,2.458481,0.113359,1.155225,1.990528,0.847565,0.869947,0.677581,101,0.60588,0.239707,0.183508,0.145978,0.162355,0.023427,0.4083,4a8ec0b3.json,Sad,0.505044,273.283775,15791.40477,cheating,4,2,0.946128,1,2.217924,89,17
34bd0a00,1.837564,93.661024,-32.268559,-80.270354,2.27863,40,3,41,19,0.555444,Angry,9.77,0.856078,0.571001,1.959906,0.573501,0.858695,0.163667,0.456237,30,0.260326,0.297701,0.097002,0.013247,0.071737,0.164146,0.64124,e3178701.json,Sad,0.247034,122.97921,4419.32053,cheating,30,0,0.907552,1,9.645952,287,7
cdb1b973,1.568792,78.553889,-31.695223,109.86495,0.828982,26,27,11,7,0.475945,Sad,8.53,2.802542,0.938241,1.117301,1.075854,0.676314,0.311446,0.636201,105,0.215994,0.416516,0.191615,0.167567,0.022614,0.001946,0.641078,50281a38.json,Neutral,0.382776,294.108301,6950.931132,cheating,20,5,0.906957,0,4.077609,453,9
4f94528a,2.133759,64.16733,-30.875408,-57.201489,1.972238,20,40,39,21,0.067742,Happy,1.7,1.303945,0.491296,0.968929,1.451802,0.940215,0.048479,0.269464,208,0.817513,0.378312,0.013949,0.079059,0.172183,0.15287,0.535037,f52ef51f.json,Neutral,0.733077,220.586601,12201.610022,cheating,21,0,0.943872,0,6.306746,222,8
443447e6,2.464594,74.326251,-36.601384,17.778294,2.010533,6,8,5,21,0.176748,Happy,7.3,0.941909,0.055609,0.68464,0.588043,0.376862,0.453536,0.689581,66,0.092789,0.47747,0.037922,0.088331,0.067797,0.12038,0.373888,79a6f923.json,Sad,0.939923,117.129442,3229.353167,cheating,23,1,0.827478,1,7.198499,40,8
cfee4299,1.668283,78.510719,-39.48433,-14.128281,1.049312,2,2,46,27,0.194809,Happy,1.08,0.200266,0.503419,1.521621,0.739157,0.398073,0.209681,0.513768,489,0.098419,0.384719,0.066824,0.02165,0.023635,0.13211,0.435677,f6fa3239.json,Happy,0.817802,240.921821,1842.994331,cheating,33,7,0.831016,1,1.248358,524,16
3d778e0e,1.177456,74.863026,-44.09146,105.097747,0.419958,20,47,20,29,0.240017,Angry,5.39,0.171696,0.20907,2.417569,1.48556,0.262427,0.086069,0.59249,19,0.496118,0.735894,0.182459,0.057392,0.002146,0.19018,0.556525,c280abf1.json,Happy,0.846665,134.734231,11720.893383,cheating,26,5,0.855509,0,2.811271,110,16
1519eb2b,1.577939,62.642656,-35.996743,157.293214,1.933263,35,27,29,2,0.162953,Sad,4.47,2.448442,0.194613,2.840335,2.136093,0.807076,0.853717,0.727228,177,0.840387,0.622535,0.17806,0.042167,0.144469,0.199171,0.735802,a41a9ad0.json,Sad,0.218891,28.771549,17923.07945,cheating,27,2,0.809631,1,4.713437,598,20
e0088f2c,2.665687,73.095428,-43.164807,44.499708,1.958024,38,45,25,13,0.09744,Sad,0.43,1.816814,0.095152,1.598215,2.492496,0.654657,0.651837,0.382561,152,0.370896,0.521561,0.128029,0.09679,0.147856,0.023616,0.504188,4cda0856.json,Neutral,0.105298,42.523074,3383.045011,cheating,23,7,0.932718,0,3.235062,515,9
6cd5563a,2.428003,64.138915,-30.528507,50.807953,1.918931,0,49,2,18,0.036877,Neutral,6.22,0.663014,0.723068,1.356592,1.768616,0.597864,0.015552,0.41723,527,0.8972,0.647146,0.001235,0.1329,0.050015,0.049552,0.59741,8cbd3346.json,Neutral,0.826523,79.206879,10340.330185,cheating,23,4,0.805516,0,1.452524,57,11
af68e849,1.436316,86.986684,-39.894821,134.42793,1.288709,50,1,2,30,0.074571,Neutral,3.81,1.377357,0.850957,2.867338,1.666959,0.822929,0.990047,0.484139,283,0.201603,0.245636,0.185427,0.020529,0.091805,0.191955,0.575372,c6943ca8.json,Happy,0.174667,101.46579,12481.959031,cheating,13,4,0.80176,1,4.399221,456,15
f58fe8aa,2.038587,80.4387,-33.133027,82.862585,2.095163,22,45,1,27,0.386455,Sad,9.23,1.595481,0.059891,1.379918,0.722384,0.947795,0.96138,0.28173,257,0.904494,0.79515,0.043456,0.054229,0.141738,0.015685,0.71076,451718ae.json,Neutral,0.581125,29.968532,19657.55823,cheating,26,2,0.994829,1,2.723583,475,8
b702e74b,2.366743,73.559229,-31.119766,39.695684,0.602485,21,14,17,14,0.443584,Sad,3.63,0.51403,0.698566,0.582827,3.658585,0.548166,0.957742,0.928396,115,0.135426,0.212721,0.044295,0.09012,0.183497,0.087312,0.750361,18868403.json,Happy,0.331338,207.926065,9712.647592,cheating,22,0,0.809964,0,2.810757,226,14
bd524f79,1.929474,76.117169,-32.362665,-100.762536,1.200387,7,22,5,25,0.387647,Sad,7.27,2.015605,0.720874,0.657231,1.877293,0.331109,0.795594,0.366914,149,0.6826,0.431039,0.095517,0.199664,0.107119,0.164689,0.302023,5e6a0ec2.json,Sad,0.974328,117.870628,14870.07205,cheating,29,6,0.838539,0,9.415619,402,14
a007640d,2.740055,84.777368,-30.330035,-44.709836,0.374166,48,14,36,14,0.553398,Happy,7.09,1.425081,0.123755,1.202875,1.041872,0.954621,0.932117,0.796309,465,0.776891,0.41824,0.15022,0.079879,0.095136,0.167788,0.476472,eefee5d0.json,Neutral,0.552357,169.887599,9903.602657,cheating,11,8,0.999956,1,9.95505,439,20
3c8b4c2e,1.310925,91.46096,-35.689041,81.751727,0.406764,50,23,18,1,0.291791,Happy,6.71,1.695456,0.913821,1.779025,2.871663,0.200746,0.792723,0.699232,213,0.289583,0.517358,0.15481,0.199388,0.179162,0.073474,0.771245,c5dc0500.json,Happy,0.849484,153.982259,19661.399193,cheating,19,0,0.803258,0,5.284499,348,6
cf6c06c7,2.545131,81.788128,-42.998765,8.41642,0.643692,20,42,39,16,0.096356,Angry,0.34,0.879448,0.295363,0.619978,2.573069,0.921578,0.396408,0.502152,31,0.165114,0.391484,0.023853,0.147441,0.050306,0.128165,0.402224,ef175aa4.json,Happy,0.20464,87.499677,12586.062024,cheating,23,3,0.920849,1,2.57591,73,9
e7c4f54e,1.273795,82.86849,-31.509745,154.379663,1.309775,43,3,45,28,0.308308,Neutral,2.06,1.094985,0.056872,1.349751,2.974983,0.855213,0.521135,0.199242,475,0.748901,0.284205,0.113602,0.16421,0.012971,0.16798,0.592474,43395faa.json,Sad,0.462182,203.017452,5156.823421,cheating,33,3,0.8653,1,8.495135,558,12
cd83e15d,2.862514,90.662828,-38.841351,55.102398,1.045517,46,0,6,21,0.473393,Happy,4.18,2.806518,0.367884,0.638422,3.754755,0.986988,0.474943,0.840444,468,0.798097,0.746754,0.014204,0.071062,0.10343,0.185295,0.685007,d7a4cabe.json,Sad,0.502762,109.981051,5968.47099,cheating,24,8,0.970364,0,2.651294,480,11
ed13198c,2.514936,84.883931,-38.164528,47.896475,0.628639,16,17,10,3,0.220754,Neutral,8.08,0.551801,0.853081,2.19336,0.6063,0.394093,0.056336,0.806455,299,0.662401,0.1642,0.18351,0.019519,0.101109,0.128641,0.657279,d92109e8.json,Happy,0.894163,47.228257,1196.943732,cheating,23,0,0.842905,0,1.95833,18,7
0011f069,1.386096,73.658289,-39.69254,124.79591,1.043714,2,46,41,8,0.038193,Happy,0.55,0.001038,0.304381,0.751092,2.314056,0.483403,0.828705,0.739864,307,0.738187,0.367707,0.018412,0.019905,0.111842,0.197907,0.597283,2314f69c.json,Sad,0.261226,94.991121,15503.002057,cheating,31,2,0.843378,1,6.500732,446,13
e774bee6,2.956137,78.455088,-43.225456,-16.293354,2.385339,6,10,43,10,0.377673,Angry,7.44,1.215285,0.716934,1.444825,3.027836,0.383521,0.787727,0.988221,317,0.272129,0.757115,0.031839,0.127046,0.136801,0.104275,0.725706,5e73805b.json,Neutral,0.501119,187.431152,1779.670833,cheating,3,5,0.873138,0,7.315196,95,12
4355a3de,2.562379,63.715977,-32.931074,-14.796161,2.104697,37,7,3,27,0.587592,Angry,3.53,0.924019,0.139732,0.551604,2.093889,0.281262,0.033518,0.148054,79,0.357327,0.140386,0.076277,0.162262,0.136346,0.120013,0.769621,acb6065e.json,Happy,0.638709,252.505991,14414.931282,cheating,12,1,0.886722,1,1.669859,46,20
0df61a45,2.071969,63.532679,-42.024695,88.452018,0.839892,41,30,20,12,0.097721,Sad,1.91,1.22304,0.815583,2.475371,0.512536,0.265722,0.081548,0.617277,228,0.890636,0.768767,0.115756,0.08229,0.159425,0.058881,0.699266,eddf31f5.json,Sad,0.450643,163.714823,16223.034499,cheating,11,2,0.988165,0,7.288904,592,17
34863910,2.158451,88.066413,-43.380769,-15.618114,1.869226,47,12,41,1,0.57601,Neutral,6.48,2.844326,0.040532,1.574654,1.626569,0.672486,0.773078,0.409598,488,0.390625,0.17874,0.039347,0.147164,0.179712,0.058614,0.625927,3c19a456.json,Happy,0.659033,184.232882,12610.138821,cheating,22,0,0.938881,0,7.300211,421,20
049a9bb5,1.091346,93.825612,-42.697801,-74.985064,2.332042,6,45,47,3,0.543845,Sad,5.91,1.96256,0.805005,0.543863,3.034186,0.364981,0.538175,0.271331,460,0.948616,0.253914,0.035263,0.198566,0.033388,0.106866,0.652595,d8fd6014.json,Happy,0.671259,109.367457,4741.096631,cheating,11,1,0.841477,1,2.987799,366,17
8dc0a795,2.878562,96.717259,-38.579331,-83.275145,1.205749,11,45,40,12,0.016123,Neutral,7.28,2.612251,0.711573,2.709036,1.133712,0.139485,0.61543,0.010788,252,0.580966,0.799533,0.137831,0.105131,0.019732,0.145647,0.437631,72f96c71.json,Neutral,0.49347,29.34245,13419.480953,cheating,30,6,0.910534,0,6.161872,467,14
d9c9e1d0,2.913338,68.147538,-33.514007,-11.728952,1.392612,30,0,27,17,0.018921,Happy,5.34,1.921265,0.757054,0.665191,0.797277,0.809517,0.15631,0.29554,296,0.241542,0.295629,0.138967,0.061869,0.135345,0.113859,0.591783,2d1040c6.json,Neutral,0.97278,21.186566,13822.553324,cheating,23,0,0.938411,1,1.743093,89,17
8564b7e1,1.244223,60.504686,-34.275623,-23.866447,2.200085,33,35,23,3,0.428088,Happy,0.81,0.691227,0.286653,0.577854,3.411578,0.341143,0.788313,0.713906,292,0.522177,0.706219,0.116051,0.083856,0.00146,0.039218,0.390351,5fd62ed5.json,Neutral,0.407823,129.739539,1847.040039,cheating,5,1,0.95465,0,6.270615,417,9
0dd2b260,1.446293,91.699529,-35.472157,-54.29227,0.562246,23,14,38,26,0.589554,Happy,4.98,1.150576,0.046484,0.538521,3.349917,0.614687,0.769225,0.590837,563,0.848313,0.734032,0.024565,0.178441,0.030322,0.157957,0.646337,87871d6a.json,Sad,0.233393,37.702384,14295.051608,cheating,5,8,0.814809,0,7.010208,34,5
b2996642,1.828634,73.739213,-30.620937,-49.7831,1.871153,10,24,10,16,0.334678,Happy,6.4,1.348816,0.03189,0.520435,2.833343,0.535074,0.673573,0.188242,193,0.582564,0.650696,0.0089,0.097342,0.109889,0.050174,0.385825,4948d29f.json,Happy,0.27751,286.613008,12653.789444,cheating,15,7,0.803078,0,4.190373,109,2
15e52137,2.969355,97.300357,-41.843359,-92.264301,1.859624,28,48,21,15,0.47002,Angry,5.85,2.742342,0.860789,0.80183,2.119232,0.340171,0.042652,0.980169,142,0.91169,0.571205,0.094749,0.060641,0.073066,0.131566,0.393229,7e5d45d5.json,Neutral,0.666924,76.569363,408.251573,cheating,31,3,0.867927,0,6.533793,596,4
26e6d919,2.88445,66.419962,-39.948677,-118.853183,2.088387,43,46,1,4,0.411785,Neutral,7.48,0.633061,0.802728,1.809093,1.427684,0.178313,0.039235,0.89301,328,0.981449,0.306249,0.004791,0.130085,0.031092,0.020512,0.530238,e2e5552a.json,Neutral,0.176856,111.331822,14680.103832,cheating,21,8,0.864079,0,9.540564,337,16
67b836f8,2.699134,82.917639,-44.245424,24.615215,1.304987,12,33,13,26,0.521877,Neutral,7.58,1.681431,0.658418,2.198581,1.584998,0.256858,0.867161,0.38146,278,0.446223,0.544737,0.118954,0.097651,0.00431,0.120245,0.417431,c4821a06.json,Sad,0.284877,174.638246,1075.918026,cheating,35,7,0.967012,0,8.564079,487,19
4651af03,1.475756,60.079264,-30.991318,57.94016,0.794157,30,1,1,15,0.221839,Neutral,3.63,0.235758,0.542363,0.803305,1.084502,0.284288,0.082062,0.278152,494,0.080614,0.445545,0.037274,0.03018,0.158365,0.073054,0.58614,478040aa.json,Sad,0.730675,210.456355,14189.56141,cheating,16,4,0.894841,1,4.929964,162,2
bfa4bd9c,1.366925,70.451492,-35.958116,55.02804,1.549361,44,17,43,0,0.08986,Angry,0.34,1.960966,0.352845,0.90716,1.186119,0.950377,0.938863,0.745455,108,0.0418,0.708256,0.106193,0.15942,0.003314,0.158754,0.402561,40984bd0.json,Happy,0.371486,175.578837,18748.806705,cheating,30,0,0.83208,1,5.039241,340,12
1d80a8f3,2.428373,73.706558,-42.068181,67.8461,2.029947,4,20,35,24,0.540298,Neutral,6.88,1.14941,0.155329,2.326482,1.50112,0.721421,0.742121,0.502782,188,0.240595,0.647828,0.024515,0.122174,0.088253,0.164441,0.586524,197de7d0.json,Neutral,0.942516,153.722327,2775.238959,cheating,30,6,0.833986,1,6.382294,599,7
b7436849,2.908379,72.148784,-39.118863,-16.923156,2.214018,17,21,3,29,0.27335,Sad,4.65,0.505802,0.516773,1.300562,1.654401,0.550911,0.759714,0.241956,275,0.681218,0.264331,0.092681,0.139724,0.062923,0.006906,0.697201,fc484df5.json,Happy,0.860721,250.724292,9946.553981,cheating,31,4,0.94551,1,6.104096,502,2
dadb415b,1.87649,78.048453,-34.906789,105.477691,0.90225,50,28,48,21,0.132996,Neutral,6.39,2.158233,0.317163,0.596826,3.958,0.225423,0.365374,0.145907,438,0.393669,0.75108,0.151893,0.159724,0.076388,0.053493,0.361494,dc1687eb.json,Neutral,0.335566,192.128696,13272.191197,cheating,18,4,0.815045,0,9.989152,33,5
ae3cccf8,1.266792,71.485089,-32.562422,68.290789,1.177478,45,34,15,9,0.593084,Angry,1.76,1.905474,0.352706,0.963472,0.528639,0.798061,0.83517,0.483171,421,0.513992,0.608532,0.050367,0.177572,0.085811,0.118537,0.46187,904ca84a.json,Sad,0.967482,42.917865,4319.304667,cheating,32,8,0.881892,1,9.557779,108,6
50b0ff00,2.170373,94.515756,-42.554192,-103.818323,2.307204,25,37,19,6,0.370404,Neutral,0.97,1.178593,0.215503,1.723308,1.539379,0.151385,0.110936,0.18475,289,0.256679,0.35029,0.168316,0.189829,0.122622,0.175056,0.459533,0d5f7bb7.json,Happy,0.363205,212.963588,3272.149842,cheating,28,6,0.910258,1,9.899192,575,9
7ac0db44,0.869066,88.428025,-30.930474,-117.665139,0.551666,22,34,26,6,0.074194,Neutral,9.71,2.139911,0.889629,2.979529,1.989853,0.59893,0.225835,0.022878,39,0.333332,0.565771,0.151402,0.072643,0.047744,0.180138,0.373724,03dd9734.json,Neutral,0.948275,137.974401,2846.183699,cheating,23,5,0.822148,0,2.271145,358,11
3a663e19,1.408964,77.970605,-34.696333,-97.249892,1.763897,46,30,14,14,0.194532,Angry,2.68,1.218224,0.805919,0.59759,1.076023,0.381709,0.313832,0.392589,20,0.461974,0.731868,0.042225,0.027666,0.06792,0.122263,0.744996,439e1e6d.json,Sad,0.903533,54.078307,12577.235212,cheating,10,8,0.942913,1,4.871084,321,3
45ca2bd5,0.530197,65.974456,-37.46606,125.175496,0.526671,23,11,21,15,0.043679,Sad,4.32,2.079039,0.753846,1.250268,2.669473,0.478829,0.665604,0.810258,2,0.252035,0.604334,0.086464,0.056143,0.098694,0.090059,0.796583,7b4f2a7e.json,Neutral,0.710705,131.996405,9457.032832,cheating,31,0,0.846154,0,7.276039,420,2
86cea51a,2.168944,89.742653,-38.053103,-103.870436,1.607152,42,27,10,30,0.549119,Happy,5.26,0.376535,0.212072,2.699811,2.735785,0.049347,0.54028,0.123627,384,0.429223,0.115453,0.105006,0.014461,0.115902,0.174809,0.47768,e068b554.json,Sad,0.946008,134.703776,17858.498842,cheating,23,2,0.928504,0,9.049425,86,7
2867bd34,2.674071,72.582407,-31.126909,57.149982,0.649564,36,21,18,27,0.087769,Neutral,0.56,0.237173,0.78435,0.627643,2.325421,0.157821,0.897092,0.697552,152,0.391794,0.784149,0.004768,0.039653,0.065673,0.128472,0.356322,57feefac.json,Sad,0.946296,111.331629,16337.05277,cheating,30,3,0.818131,0,1.776124,206,2
95b90342,1.979189,85.352238,-40.963801,-119.027443,0.586009,24,6,32,6,0.419571,Happy,3.76,1.279848,0.521197,2.449367,3.714757,0.579286,0.083342,0.072402,572,0.237331,0.757621,0.026675,0.159248,0.075213,0.075948,0.451565,cb90ab16.json,Neutral,0.263593,45.581464,13349.791512,cheating,6,6,0.881969,1,9.876889,92,14
b07c7f7b,1.30021,69.249893,-44.438149,123.724373,1.237094,23,6,18,4,0.298043,Sad,5.84,0.89449,0.957713,1.987717,3.600788,0.064085,0.399237,0.294008,499,0.149182,0.141218,0.176243,0.157885,0.007681,0.194269,0.552968,374c92fd.json,Neutral,0.214322,41.821555,6710.871052,cheating,19,5,0.961728,1,4.311387,249,3
7e3a54ac,2.385096,62.074739,-42.977968,-15.961317,0.969199,21,18,27,6,0.507453,Sad,6.26,2.702613,0.647766,0.52268,3.869858,0.76581,0.411867,0.320161,25,0.660057,0.133814,0.009943,0.141185,0.174505,0.128733,0.747466,0e94816f.json,Sad,0.157682,225.079644,17098.716793,cheating,34,8,0.933687,0,1.202621,160,20
591fa618,1.233841,75.913689,-33.6104,-42.176664,0.751742,6,41,12,2,0.155281,Happy,0.48,1.403107,0.649203,1.566628,2.099316,0.432504,0.611395,0.049509,498,0.120346,0.746736,0.171869,0.139952,0.05272,0.05772,0.703208,ee394edc.json,Neutral,0.124844,110.370689,17549.899701,cheating,30,4,0.849651,0,3.849696,146,3
eebe7b7f,1.7697,88.170976,-44.669759,-26.110412,0.484061,17,21,26,29,0.349264,Happy,2.69,0.161874,0.565269,0.596676,3.165599,0.830622,0.943752,0.988309,207,0.855565,0.62205,0.132242,0.056432,0.019449,0.041226,0.696246,f79b1f12.json,Happy,0.795656,163.132074,12525.579584,cheating,29,1,0.890885,0,8.855685,37,10
89c020bd,1.763898,65.029062,-35.703102,-33.191562,1.4029,47,3,18,17,0.455058,Neutral,6.41,2.824739,0.407456,1.049148,1.638192,0.354902,0.196512,0.553582,496,0.005406,0.136136,0.189513,0.044356,0.132187,0.075067,0.64791,b2663b44.json,Happy,0.762416,161.165846,19518.102579,cheating,32,4,0.826766,1,9.474286,318,3
d7e27ac5,1.818603,70.024425,-35.535617,59.056765,1.792187,1,19,2,27,0.450506,Sad,1.49,2.614322,0.331622,1.276939,2.52997,0.301516,0.523295,0.003679,69,0.85091,0.627514,0.020364,0.082901,0.09865,0.126204,0.342566,41b73808.json,Sad,0.413779,253.524994,2261.428614,cheating,23,5,0.918351,1,1.313165,359,5
b07de5e7,2.22767,90.273358,-37.006307,59.568342,2.065656,33,22,37,18,0.14471,Happy,7.0,0.620584,0.173146,1.312223,2.498247,0.112364,0.299503,0.569888,228,0.327888,0.265742,0.15635,0.136613,0.049752,0.033445,0.343823,5dcf8cf3.json,Sad,0.548792,52.21027,10504.078506,cheating,21,6,0.81573,0,3.483517,42,18
b4e35449,2.002926,62.218513,-32.55613,-24.194187,1.482001,41,6,20,18,0.061178,Angry,7.68,0.759357,0.185512,1.548435,3.440207,0.272761,0.368078,0.825783,464,0.369842,0.127235,0.057463,0.057663,0.083108,0.066632,0.492334,f452cd3b.json,Neutral,0.77746,200.408106,7638.284376,cheating,26,2,0.870827,0,6.363161,473,2
fa1dd550,2.176606,98.813019,-31.008428,70.714364,0.507953,11,4,37,27,0.46315,Sad,9.28,0.165703,0.856805,1.391648,3.00382,0.804067,0.507412,0.722792,289,0.592849,0.370307,0.067775,0.06696,0.154673,0.135045,0.77091,1ee04b60.json,Neutral,0.277506,225.17297,9586.058414,cheating,22,2,0.894782,0,6.776614,558,13
8b5cfa16,0.964082,90.413738,-43.229093,153.560082,1.199258,29,31,12,20,0.1526,Neutral,1.63,1.006001,0.593006,2.205626,1.905756,0.883362,0.828219,0.161327,452,0.150471,0.605602,0.013047,0.061671,0.055124,0.11558,0.721766,207c68b3.json,Sad,0.688471,22.835498,11510.043877,cheating,4,1,0.85178,1,2.585905,24,10
7e3c61ca,2.327934,77.960601,-37.81337,-50.835581,2.466542,14,25,7,12,0.040779,Neutral,5.44,1.341161,0.31077,2.580416,3.771045,0.491152,0.828403,0.137427,287,0.160399,0.661051,0.139387,0.06663,0.143823,0.111515,0.695461,8510327c.json,Sad,0.568055,162.09112,14063.296417,cheating,31,4,0.868255,1,9.979426,197,3
25b79011,1.963244,78.185247,-33.509051,58.976374,1.840532,35,5,10,28,0.064666,Sad,9.88,2.122261,0.007683,1.684543,1.464107,0.985965,0.827973,0.421802,525,0.903425,0.258823,0.162952,0.044436,0.117234,0.181916,0.664794,6f556686.json,Sad,0.680766,103.930854,7974.334156,cheating,26,2,0.85238,0,9.444204,566,12
f99b583c,2.427765,89.747326,-40.20077,-8.497004,0.986758,36,29,14,12,0.089769,Neutral,2.4,0.480823,0.675546,0.939386,2.964043,0.606798,0.417085,0.092272,71,0.944995,0.735145,0.057508,0.183325,0.132877,0.075865,0.49511,88394561.json,Happy,0.366778,220.091664,4810.361939,cheating,35,2,0.989356,1,4.77154,489,15
5f366a5e,2.584158,97.256296,-32.884742,20.722751,0.787896,48,10,41,12,0.449378,Neutral,6.59,1.446311,0.466697,1.722352,0.992872,0.704984,0.701489,0.202051,308,0.895449,0.429917,0.112906,0.095057,0.111132,0.07835,0.625574,511c7cf5.json,Sad,0.47575,23.577804,14603.098026,cheating,34,0,0.819763,1,5.750398,497,14
7345fcfa,0.809982,63.469846,-42.9309,-111.276238,2.076013,31,29,18,12,0.537308,Angry,2.65,1.71722,0.917902,2.563528,2.805018,0.720269,0.827476,0.679822,10,0.739663,0.603137,0.003992,0.07665,0.026819,0.171932,0.59614,cadd934f.json,Happy,0.734081,159.053268,4395.972687,cheating,4,4,0.92174,1,7.086145,272,7
3accca57,1.989899,64.072242,-42.407953,37.170475,0.906293,34,27,46,8,0.346561,Sad,0.44,0.305354,0.747002,0.913674,2.651671,0.316247,0.716807,0.854304,31,0.089061,0.533292,0.08665,0.095613,0.11083,0.172767,0.700285,e66fef12.json,Sad,0.465859,223.966686,2026.73498,cheating,24,1,0.889376,1,1.608133,411,19
fbb70121,1.446626,70.453345,-42.701683,-86.904597,1.191023,24,38,40,30,0.24326,Angry,3.05,0.282789,0.607171,1.464226,2.387545,0.45984,0.43511,0.916066,89,0.532473,0.298249,0.081877,0.1871,0.057557,0.026263,0.695474,5a78848c.json,Sad,0.718333,255.650906,10765.842539,cheating,27,3,0.881199,1,5.231564,268,4
277908b9,0.669343,77.429671,-44.923085,-105.752739,1.30698,18,26,31,19,0.259129,Neutral,7.08,2.135509,0.459635,1.262609,1.37103,0.971829,0.61574,0.278601,115,0.737824,0.52236,0.019603,0.027735,0.170461,0.075548,0.362409,448a950f.json,Neutral,0.732767,265.501782,18212.24867,cheating,9,6,0.81007,0,8.721202,434,9
59a60fbd,2.598713,86.128009,-37.52157,-32.847933,1.028786,29,2,47,5,0.283352,Angry,3.71,0.720825,0.772102,1.178918,2.631965,0.450653,0.472178,0.681678,183,0.762002,0.197681,0.067412,0.077399,0.185746,0.097323,0.744357,eed8dcb8.json,Neutral,0.87945,98.804075,18857.75858,cheating,17,8,0.802714,0,6.187747,281,3
62764f4d,2.669922,78.420009,-39.829205,106.217754,0.634436,18,38,30,20,0.409952,Sad,6.16,2.808764,0.123708,1.567239,3.432549,0.905769,0.100138,0.144471,575,0.896907,0.44764,0.082482,0.15272,0.174137,0.05976,0.423398,426a9208.json,Neutral,0.513344,209.025723,9913.079373,cheating,20,2,0.903621,0,6.847503,571,9
222e123e,2.906294,85.988089,-42.239887,24.106199,1.049752,5,22,1,12,0.087349,Sad,6.22,1.873411,0.166845,1.133398,1.359305,0.077126,0.724909,0.07352,334,0.113063,0.24065,0.187328,0.073163,0.066431,0.114722,0.661033,980dbf3b.json,Neutral,0.452356,190.702092,12524.555403,cheating,21,5,0.875435,1,9.142196,26,18
a1c22b96,1.696174,88.197532,-43.959699,29.709525,1.332493,0,48,42,29,0.389075,Angry,3.98,1.123747,0.386773,0.503141,2.95159,0.901496,0.009671,0.306305,446,0.847385,0.13706,0.078932,0.046841,0.104853,0.088595,0.77553,35b2fd45.json,Happy,0.749474,160.523539,2053.88928,cheating,10,6,0.96498,1,5.826108,170,18
83d1c39c,2.357026,70.101743,-35.042088,129.170769,1.15844,30,24,7,8,0.158611,Sad,6.14,2.680098,0.316281,1.762454,2.48961,0.364794,0.08282,0.258468,568,0.163986,0.537124,0.146122,0.125283,0.057615,0.113113,0.645036,52705d0b.json,Neutral,0.42973,105.198446,1586.331138,cheating,31,7,0.958869,1,2.994154,54,18
81ec38cf,2.138045,78.557453,-35.579785,15.692959,0.95293,7,46,48,29,0.026643,Neutral,7.9,0.484595,0.305884,1.927412,1.499865,0.199666,0.858743,0.298722,556,0.597955,0.623611,0.199338,0.095925,0.035277,0.124878,0.312973,cbca5737.json,Neutral,0.259047,33.451116,14436.052565,cheating,32,3,0.886755,0,5.369196,318,19
a53bc234,1.114911,81.828148,-39.641533,88.358749,1.497532,39,11,16,23,0.154542,Neutral,8.88,0.093389,0.409426,2.357758,2.118247,0.680381,0.2937,0.140461,446,0.671673,0.591024,0.114144,0.053931,0.128789,0.020489,0.557544,6d3afc88.json,Sad,0.967399,42.358439,12031.690074,cheating,29,2,0.941959,1,5.713362,416,20
06329254,0.653162,81.83004,-36.528265,-41.863584,1.135543,3,0,44,22,0.229291,Happy,4.57,1.202519,0.07155,1.312173,0.748357,0.533178,0.915662,0.29591,203,0.871585,0.515163,0.022327,0.082586,0.172372,0.001674,0.345134,c59a00ff.json,Neutral,0.100215,249.942243,17308.899765,cheating,8,3,0.924204,1,4.214801,323,18
60b5b161,1.107709,96.634365,-37.810856,131.958577,1.918536,18,39,19,16,0.045744,Angry,6.6,0.145888,0.862031,1.172189,3.089553,0.646012,0.351269,0.235256,7,0.566917,0.154528,0.085124,0.106269,0.040295,0.130007,0.393541,dd6add4c.json,Sad,0.317164,114.938525,16484.301711,cheating,3,2,0.964344,1,2.241311,53,8
49a64507,2.211121,84.544994,-37.431,0.107564,2.210096,2,10,30,24,0.182056,Sad,2.22,1.787329,0.902169,1.213831,0.600772,0.924209,0.138656,0.453309,248,0.303269,0.531249,0.010891,0.154761,0.027294,0.123629,0.323829,2152865b.json,Happy,0.520265,98.086697,13002.810398,cheating,14,2,0.938078,1,9.31128,163,3
3e4a06f7,1.464737,63.550247,-41.549768,-77.241817,1.371747,37,7,34,13,0.476568,Neutral,9.31,1.12983,0.038866,2.760968,3.272674,0.624929,0.145188,0.670614,300,0.959326,0.207265,0.016344,0.139542,0.132786,0.049653,0.593318,a687e52d.json,Neutral,0.417099,283.414959,3922.811264,cheating,23,7,0.887593,1,9.089351,274,8
fad8ff6e,0.565972,61.427704,-37.771776,-53.253651,1.689482,9,14,14,0,0.423934,Happy,7.29,0.832255,0.630796,2.406547,1.53739,0.774511,0.270318,0.436851,499,0.216699,0.163348,0.055642,0.102101,0.096874,0.154904,0.441879,136dc33e.json,Happy,0.153132,296.492665,902.504788,cheating,19,1,0.976716,1,5.40434,219,9
f6175a80,2.103617,90.746056,-32.568357,11.997923,2.189556,31,36,50,30,0.415608,Sad,9.26,0.65748,0.28431,1.607596,0.999565,0.547921,0.772169,0.736552,261,0.666101,0.564258,0.048949,0.128079,0.076679,0.043624,0.385983,28a48233.json,Neutral,0.452996,35.088081,7174.673983,cheating,27,3,0.95574,0,3.85446,544,5
eba14a69,1.289314,91.955845,-34.857181,3.087986,1.222184,3,47,9,5,0.130044,Neutral,7.41,1.676349,0.456828,1.375522,2.133387,0.646644,0.291277,0.119034,132,0.184769,0.684468,0.057251,0.106577,0.159041,0.199119,0.635901,f47e8674.json,Sad,0.844708,262.419768,17618.582774,cheating,28,8,0.905247,0,9.288324,56,6
66371687,1.490857,63.34423,-44.970984,88.422633,0.943598,50,36,10,12,0.356772,Sad,7.16,1.106874,0.162549,0.92098,2.776126,0.175847,0.048442,0.752647,462,0.668586,0.575188,0.073453,0.173179,0.160995,0.074235,0.559956,eec7467d.json,Happy,0.428875,249.113491,8360.847169,cheating,5,2,0.969054,0,3.846373,377,7
de538913,0.794681,97.304078,-40.085729,-80.614673,1.340422,24,27,39,0,0.04329,Sad,7.5,2.010618,0.239561,0.825982,1.636471,0.456798,0.056229,0.395739,329,0.61944,0.626571,0.188325,0.046992,0.146142,0.030629,0.549536,82ea2504.json,Sad,0.622434,271.937494,12814.477553,cheating,34,5,0.963516,0,1.427014,109,3
2ffbe72c,1.398104,74.371735,-38.263562,63.026596,1.260176,39,17,32,20,0.263946,Angry,7.4,2.592822,0.655116,0.613895,0.822402,0.522266,0.367384,0.150615,533,0.676071,0.629209,0.004463,0.090025,0.012363,0.076113,0.681216,65a915c1.json,Sad,0.357771,138.661499,4052.058667,cheating,14,4,0.90561,1,7.983704,533,11
089df2c9,0.760412,69.669344,-39.86482,-107.992573,1.976025,49,25,45,19,0.364038,Sad,5.45,1.684045,0.319077,1.429847,0.926952,0.657401,0.348765,0.323844,464,0.131008,0.602104,0.163618,0.050074,0.033446,0.133933,0.400532,6666e894.json,Neutral,0.974825,241.528971,14778.288083,cheating,7,0,0.805988,1,3.841622,440,6
a8fab6c0,0.661378,76.781143,-42.064944,30.547503,2.447825,34,28,20,17,0.424685,Happy,1.65,0.06011,0.539158,0.746582,0.987053,0.321104,0.742181,0.190857,278,0.152757,0.65089,0.007017,0.13563,0.061416,0.106107,0.642093,bdf93dac.json,Happy,0.982379,130.077294,1122.293515,cheating,14,7,0.999826,1,6.762678,357,3
42baa5c0,1.828163,69.991582,-32.585336,30.495559,1.415678,45,24,50,11,0.326156,Happy,6.66,1.885707,0.550049,0.612662,1.588152,0.190321,0.477528,0.04547,543,0.587175,0.510457,0.004077,0.047682,0.186522,0.075345,0.597055,db81e1ad.json,Sad,0.156374,73.653477,10956.527436,cheating,15,0,0.912022,1,9.633617,180,8
c1c6330e,0.786762,80.237429,-40.484975,91.863497,1.732705,45,34,29,3,0.41336,Neutral,9.58,2.377285,0.943374,0.579059,3.792244,0.834116,0.075125,0.526945,83,0.489935,0.472901,0.108259,0.140921,0.127424,0.04904,0.445874,50de184b.json,Sad,0.42804,256.004253,4899.439639,cheating,29,6,0.871207,1,5.467049,498,15
cda63bf6,2.072431,63.78005,-33.521139,30.643368,0.885988,31,26,50,29,0.487239,Angry,0.71,2.662101,0.446927,1.031918,2.950373,0.875309,0.299993,0.49339,454,0.530346,0.212337,0.044755,0.03704,0.007045,0.074345,0.799466,6a310f30.json,Neutral,0.248586,183.962752,12352.517943,cheating,10,3,0.943037,1,6.015643,108,6
058676c7,2.144299,75.751784,-43.373896,-12.948693,1.232904,3,14,3,25,0.593657,Angry,3.08,2.373085,0.254952,0.635616,0.648442,0.412146,0.249691,0.958725,206,0.823056,0.629589,0.181468,0.193258,0.104922,0.101718,0.356483,54112726.json,Sad,0.786663,121.638911,910.782254,cheating,16,8,0.956814,1,3.347392,360,7
97d2f3e6,2.394486,86.639833,-40.482539,-28.920622,2.123397,25,21,24,20,0.088101,Angry,7.48,0.308403,0.797088,1.603867,3.22984,0.788995,0.710925,0.678602,570,0.208267,0.67751,0.116831,0.102495,0.041116,0.027996,0.388717,296de452.json,Neutral,0.661901,283.677808,19572.14823,cheating,24,4,0.835999,1,3.663271,290,10
31a65792,2.468242,75.640381,-38.679482,115.80983,2.236213,11,17,5,6,0.231689,Happy,4.13,0.462044,0.134562,1.535882,2.213452,0.534039,0.101512,0.175939,349,0.006997,0.623676,0.136126,0.011255,0.166841,0.025761,0.537747,93eeaf0c.json,Sad,0.382106,98.869805,11856.461701,cheating,24,8,0.910279,0,9.53995,175,20
7497d087,1.228367,97.286135,-34.250069,-3.303098,1.257075,13,17,45,27,0.281296,Happy,2.22,1.006989,0.419651,1.736774,1.664167,0.054939,0.605551,0.261568,441,0.770289,0.549787,0.113217,0.139495,0.051706,0.116041,0.776362,9aa60bbd.json,Happy,0.125455,220.018054,1859.903016,cheating,32,6,0.936247,0,9.199591,90,5
0df4b962,2.103542,90.153886,-40.664605,-61.192076,1.582048,37,50,31,17,0.034839,Neutral,8.16,1.09056,0.105843,0.789795,3.977916,0.932991,0.258597,0.001405,250,0.257324,0.774155,0.105062,0.084821,0.120233,0.076433,0.725738,e681c9ef.json,Happy,0.633906,85.76827,11357.746209,cheating,35,0,0.974344,0,8.165343,323,19
475f417c,1.987166,64.949761,-42.96616,31.282474,2.197056,42,2,25,9,0.420411,Angry,7.69,2.508431,0.485118,1.645863,2.219807,0.027063,0.675416,0.605519,519,0.024422,0.402175,0.146278,0.055164,0.07538,0.130397,0.733928,8798e062.json,Sad,0.378928,27.987654,1417.490438,cheating,3,6,0.951648,1,6.525629,137,6
71af7ff2,2.492991,67.092172,-36.914697,-0.180976,1.226215,23,37,45,23,0.424609,Angry,8.76,2.668276,0.352605,1.675953,2.543774,0.85574,0.742768,0.195783,92,0.495981,0.155618,0.099157,0.152409,0.060172,0.068049,0.563027,b34ca43f.json,Neutral,0.956406,222.768708,11744.281912,cheating,29,6,0.880419,1,3.233655,21,11
153246f1,2.36692,83.571511,-40.766372,-40.184472,0.734062,2,34,2,26,0.376477,Angry,0.51,0.372179,0.727179,0.623975,3.497672,0.432697,0.148275,0.788104,257,0.445964,0.198652,0.103424,0.169595,0.005403,0.097146,0.373192,58570099.json,Happy,0.236317,220.648342,1890.209757,cheating,30,4,0.865907,0,3.657948,331,11
0a7f7d91,1.657666,94.901992,-30.245204,71.964378,1.517627,25,29,36,9,0.460931,Happy,5.37,1.226612,0.602092,0.964741,2.798401,0.735932,0.141837,0.323542,442,0.950907,0.505713,0.166233,0.126706,0.028592,0.194634,0.629865,fe516806.json,Neutral,0.390321,88.756617,5192.391943,cheating,12,8,0.858858,1,8.014497,233,6
3a178b14,2.781974,80.259111,-42.942979,-7.666996,0.669833,31,7,29,2,0.328555,Happy,5.9,0.499717,0.118516,1.673228,3.537629,0.442235,0.641853,0.328378,153,0.971255,0.521448,0.144348,0.094115,0.111111,0.119168,0.647194,45e90ed6.json,Sad,0.231142,223.263566,14123.245486,cheating,35,7,0.942914,1,8.170216,218,18
0683aeec,1.080417,77.896352,-30.979921,-87.042121,0.831369,21,37,5,15,0.536999,Angry,9.3,1.357408,0.108586,2.881371,1.741712,0.547315,0.04184,0.296025,442,0.556109,0.602502,0.062527,0.148848,0.128244,0.065451,0.690826,c3fae8b6.json,Sad,0.213983,277.910908,9133.21267,cheating,23,6,0.850815,0,4.98743,529,12
5736f40b,1.997595,80.012869,-35.087301,-69.612781,1.79725,5,19,48,22,0.183509,Sad,5.69,1.657336,0.188856,1.037526,2.855923,0.726678,0.440466,0.991065,477,0.818197,0.64944,0.015563,0.065341,0.027052,0.043383,0.392727,7d645c43.json,Sad,0.555982,178.693473,2217.063406,cheating,30,2,0.991805,0,6.093666,470,7
74f9e31b,1.707005,65.861137,-30.310063,3.30549,1.792843,40,30,35,4,0.239451,Neutral,1.94,1.318074,0.242958,2.631083,1.835462,0.531903,0.920468,0.332378,199,0.852427,0.654554,0.082564,0.145781,0.058151,0.177143,0.382377,cd9d5deb.json,Sad,0.893592,123.267098,9235.857909,cheating,12,2,0.949996,0,2.014336,566,14
895708fc,2.073329,82.999462,-35.556813,57.343422,2.320757,41,17,37,7,0.386254,Sad,1.35,1.856701,0.141233,1.253667,1.443525,0.55444,0.239551,0.000275,118,0.724754,0.353764,0.087502,0.024674,0.081303,0.115586,0.303801,da378323.json,Neutral,0.873363,186.141624,9652.86651,cheating,17,3,0.894193,1,5.266475,64,10
992f19b5,1.091943,85.863575,-40.762537,-103.543606,0.812495,2,26,30,7,0.202552,Happy,9.47,0.222689,0.893671,2.932244,1.405273,0.589746,0.831346,0.626152,526,0.574997,0.765704,0.081101,0.1434,0.118598,0.069573,0.490775,6d777d06.json,Neutral,0.956501,113.900328,18023.268344,cheating,14,1,0.813185,0,8.990794,316,18
8a2abb5d,2.447901,85.587662,-30.946831,124.974874,2.372961,6,4,23,24,0.282931,Sad,7.33,1.033185,0.701574,2.480616,1.147658,0.938342,0.16135,0.935606,291,0.340115,0.493566,0.013655,0.105575,0.085126,0.057385,0.460096,a5e0c5c3.json,Sad,0.664124,170.727988,5429.635356,cheating,24,1,0.855593,0,9.729824,155,6
45412dc5,2.382125,74.026413,-35.347261,14.57856,0.497643,16,49,1,1,0.164842,Happy,5.28,2.890881,0.522164,1.580754,2.497019,0.333701,0.733735,0.100879,125,0.870765,0.147724,0.152758,0.158414,0.145988,0.044321,0.512107,0e2078c3.json,Neutral,0.367142,99.432645,1228.776247,cheating,31,0,0.903931,0,1.554974,262,19
a5ce3ed8,2.761065,64.989756,-32.174821,-102.851832,1.451343,18,31,39,0,0.258971,Neutral,2.7,0.437568,0.91372,1.796749,3.281349,0.630678,0.109132,0.095848,196,0.699973,0.537685,0.01944,0.013374,0.127122,0.154433,0.573074,8ca9ee00.json,Sad,0.598331,146.888418,8548.122928,cheating,31,3,0.946843,0,7.934078,225,12
962c2133,1.486081,95.797445,-44.909288,105.312154,1.395291,27,34,14,21,0.414447,Neutral,6.66,1.441378,0.077136,1.671922,1.136684,0.121938,0.912385,0.164227,42,0.816099,0.796918,0.110381,0.058197,0.104742,0.079674,0.564422,511fa612.json,Neutral,0.435288,186.754543,9973.826665,cheating,13,7,0.962373,0,4.480968,242,2
08dfd511,1.415385,62.468081,-35.014976,72.459046,2.492209,27,1,14,0,0.267763,Neutral,6.86,2.833428,0.745112,0.593634,1.839929,0.182958,0.127046,0.469266,3,0.449563,0.771902,0.062369,0.043248,0.119938,0.146112,0.736658,4fffd146.json,Sad,0.189674,129.174389,19419.307261,cheating,10,4,0.815125,0,7.605469,540,9
